City_ID,City,Lat,Lng,Max Temp,Humidity,Cloudiness,Wind Speed,Country,Date
0,Hermanus,-34.4187,19.2345,59.81,77,37,17.65,ZA,2022-07-28 23:07:20
1,Belm,52.3,8.1333,64.56,59,100,9.62,DE,2022-07-28 23:07:20
2,Asfi,32.2994,-9.2372,70.29,88,0,15.39,MA,2022-07-28 23:07:21
3,Longyearbyen,78.2186,15.6401,40.84,93,75,9.22,SJ,2022-07-28 23:07:21
4,Praia,14.9215,-23.5087,79.5,75,2,11.99,CV,2022-07-28 23:03:08
5,Mao,39.8885,4.2658,77.56,78,0,4.61,ES,2022-07-28 23:07:22
6,Mahebourg,-20.4081,57.7,70.25,77,5,10.29,MU,2022-07-28 23:07:22
7,Los Llanos De Aridane,28.6585,-17.9182,69.55,93,0,18.41,ES,2022-07-28 23:07:22
8,Sao Filipe,14.8961,-24.4956,79.88,74,13,13.58,CV,2022-07-28 23:07:23
9,Ouargaye,11.5033,0.0572,76.51,82,96,10.67,BF,2022-07-28 23:07:23
10,Jamestown,42.097,-79.2353,78.39,38,0,18.41,US,2022-07-28 23:07:23
11,Vardo,70.3705,31.1107,49.98,76,100,8.05,NO,2022-07-28 23:07:24
12,Busselton,-33.65,115.3333,58.8,65,100,15.95,AU,2022-07-28 23:07:24
13,Ushuaia,-54.8,-68.3,40.66,81,40,18.41,AR,2022-07-28 23:07:24
14,Mar Del Plata,-38.0023,-57.5575,48.09,94,100,17.0,AR,2022-07-28 23:04:16
15,Saint-Philippe,-21.3585,55.7679,67.59,84,22,9.17,RE,2022-07-28 23:07:25
16,Port Alfred,-33.5906,26.891,68.18,58,0,1.99,ZA,2022-07-28 23:07:25
17,Qaanaaq,77.484,-69.3632,41.13,67,16,3.04,GL,2022-07-28 23:07:26
18,Chinsali,-10.5414,32.0816,56.61,63,11,8.14,ZM,2022-07-28 23:07:26
19,Souillac,-20.5167,57.5167,68.45,82,2,9.37,MU,2022-07-28 23:02:37
20,Bengkulu,-3.8004,102.2655,75.02,88,94,5.03,ID,2022-07-28 23:07:27
21,Kruisfontein,-34.0033,24.7314,59.67,54,0,9.37,ZA,2022-07-28 23:07:27
22,Arraial Do Cabo,-22.9661,-42.0278,72.0,78,20,25.95,BR,2022-07-28 23:07:27
23,Punta Arenas,-53.15,-70.9167,41.11,86,83,22.48,CL,2022-07-28 23:02:37
24,Laguna,38.421,-121.4238,102.34,34,0,8.05,US,2022-07-28 23:05:09
25,Chuy,-33.6971,-53.4616,47.7,81,79,15.59,UY,2022-07-28 23:07:28
26,The Valley,18.217,-63.0578,82.54,74,20,11.5,AI,2022-07-28 23:07:29
27,Bosaso,11.2842,49.1816,90.32,37,0,22.77,SO,2022-07-28 23:07:29
28,Toledo,39.8333,-4.0,77.97,28,0,6.55,ES,2022-07-28 23:05:23
29,East London,-33.0153,27.9116,70.32,53,21,18.37,ZA,2022-07-28 23:07:29
30,Glebychevo,60.4387,28.7183,60.26,78,16,6.73,RU,2022-07-28 23:07:30
31,Aripuana,-9.1667,-60.6333,78.85,38,5,0.45,BR,2022-07-28 23:07:30
32,Maniitsoq,65.4167,-52.9,41.92,85,97,2.24,GL,2022-07-28 23:04:02
33,Marsaxlokk,35.8419,14.5431,82.08,89,20,5.75,MT,2022-07-28 23:07:30
34,Saint-Augustin,51.226,-58.6502,55.44,76,92,9.8,CA,2022-07-28 23:07:31
35,Upernavik,72.7868,-56.1549,43.21,70,100,5.77,GL,2022-07-28 23:07:31
36,Bredasdorp,-34.5322,20.0403,54.0,71,0,13.49,ZA,2022-07-28 23:07:32
37,Camacha,33.0833,-16.3333,69.22,94,40,13.8,PT,2022-07-28 23:07:32
38,Vestmannaeyjar,63.4427,-20.2734,49.6,73,98,6.11,IS,2022-07-28 23:03:17
39,Kisangani,0.5167,25.2,68.99,99,96,1.05,CD,2022-07-28 23:07:32
40,Otuzco,-7.9,-78.5833,53.74,67,97,4.25,PE,2022-07-28 23:07:33
41,Mazyr,52.0495,29.2456,56.05,83,67,6.13,BY,2022-07-28 23:07:33
42,Huarmey,-10.0681,-78.1522,64.02,81,32,11.72,PE,2022-07-28 23:04:07
43,Narsaq,60.9167,-46.05,55.62,66,33,3.78,GL,2022-07-28 23:08:34
44,Louis Trichardt,-23.0439,29.9032,52.54,73,0,3.85,ZA,2022-07-28 23:08:35
45,Maues,-3.3836,-57.7186,82.04,59,92,3.2,BR,2022-07-28 23:08:35
46,Castro,-24.7911,-50.0119,60.62,65,100,4.72,BR,2022-07-28 23:08:35
47,Pires Do Rio,-17.2997,-48.2794,69.17,30,2,1.36,BR,2022-07-28 23:08:36
48,Hithadhoo,-0.6,73.0833,81.93,74,94,13.87,MV,2022-07-28 23:08:36
49,Poltavka,54.3663,71.7632,62.13,97,100,13.29,RU,2022-07-28 23:08:36
50,Livno,43.8269,17.0078,69.76,72,0,4.12,BA,2022-07-28 23:08:37
51,Kalmunai,7.4167,81.8167,76.24,93,100,5.37,LK,2022-07-28 23:08:37
52,Adiake,5.2863,-3.304,74.61,80,80,9.4,CI,2022-07-28 23:08:37
53,Cockburn Town,21.4612,-71.1419,81.77,74,4,19.37,TC,2022-07-28 23:08:38
54,Saint-Joseph,-21.3667,55.6167,66.58,81,10,9.28,RE,2022-07-28 23:08:38
55,Cayenne,4.9333,-52.3333,78.84,1,94,0.0,GF,2022-07-28 23:08:25
56,Belz,47.6751,-3.168,67.08,72,99,7.74,FR,2022-07-28 23:08:38
57,Faya,18.3851,42.4509,66.72,48,100,2.93,SA,2022-07-28 23:08:39
58,Abu Zabad,12.35,29.25,74.05,85,97,10.83,SD,2022-07-28 23:08:39
59,Biograd Na Moru,43.9433,15.4519,77.76,61,2,4.0,HR,2022-07-28 23:08:40
60,Santa Vitoria Do Palmar,-33.5189,-53.3681,47.44,82,73,15.68,BR,2022-07-28 23:08:40
61,Victoria,22.2855,114.1577,88.32,82,92,1.01,HK,2022-07-28 23:08:26
62,Esenyurt,41.0333,28.6753,74.75,78,0,13.8,TR,2022-07-28 23:08:41
63,Port Elizabeth,-33.918,25.5701,63.32,77,0,4.0,ZA,2022-07-28 23:08:41
64,Altoona,40.5187,-78.3947,82.22,70,68,1.01,US,2022-07-28 23:06:08
65,Donskoye,45.4552,41.9741,71.73,50,1,3.22,RU,2022-07-28 23:08:41
66,Ravar,31.2656,56.8055,86.34,46,100,3.36,IR,2022-07-28 23:08:42
67,Houma,29.5958,-90.7195,84.0,85,32,7.11,US,2022-07-28 23:04:18
68,Cape Town,-33.9258,18.4232,58.26,81,65,13.0,ZA,2022-07-28 23:05:44
69,Salalah,17.0151,54.0924,77.09,94,75,5.75,OM,2022-07-28 23:08:42
70,Dingli,35.8614,14.3822,79.81,89,20,5.75,MT,2022-07-28 23:08:42
71,Skelleftea,64.7507,20.9528,53.96,100,100,4.61,SE,2022-07-28 23:04:05
72,Malanje,-9.5402,16.341,62.96,58,73,4.72,AO,2022-07-28 23:08:43
73,Iqaluit,63.7506,-68.5145,61.54,38,93,14.07,CA,2022-07-28 23:08:43
74,Rocha,-34.4833,-54.3333,48.47,78,96,15.7,UY,2022-07-28 23:08:44
75,Yar-Sale,66.8333,70.8333,61.27,67,87,6.82,RU,2022-07-28 23:08:44
76,Tromso,69.6496,18.957,45.37,87,20,1.14,NO,2022-07-28 23:08:44
77,Aquiraz,-3.9014,-38.3911,80.69,84,84,10.36,BR,2022-07-28 23:08:45
78,Hirekerur,14.4667,75.3833,72.9,94,77,5.35,IN,2022-07-28 23:06:21
79,Lerwick,60.1545,-1.1494,55.4,84,100,9.24,GB,2022-07-28 23:08:45
80,Muisne,0.6,-80.0333,74.41,83,97,5.99,EC,2022-07-28 23:08:46
81,Bignona,12.8103,-16.2264,79.0,84,81,9.91,SN,2022-07-28 23:08:46
82,Cordoba,-31.4135,-64.1811,57.76,34,0,0.0,AR,2022-07-28 23:07:15
83,Lenoir,35.2335,-77.6497,93.49,57,0,10.36,US,2022-07-28 23:08:46
84,Caravelas,-17.7125,-39.2481,69.57,81,1,7.25,BR,2022-07-28 23:04:25
85,Buraydah,26.326,43.975,92.93,16,98,5.61,SA,2022-07-28 23:08:47
86,Dawlatabad,36.4141,64.9053,82.02,24,0,5.48,AF,2022-07-28 23:09:47
87,Masallatah,32.6167,14.0,77.27,75,0,4.38,LY,2022-07-28 23:09:47
88,Plettenberg Bay,-34.0527,23.3716,61.45,45,0,7.7,ZA,2022-07-28 23:09:48
89,Maceio,-9.6658,-35.7353,76.44,88,75,2.3,BR,2022-07-28 23:09:48
90,Beitbridge,-22.2167,30.0,61.0,56,0,6.78,ZW,2022-07-28 23:09:48
91,Dikson,73.5069,80.5464,43.45,100,100,17.09,RU,2022-07-28 23:09:49
92,Lagoa,39.05,-27.9833,71.98,76,2,3.44,PT,2022-07-28 23:09:49
93,Gunjur,13.2019,-16.7339,80.94,83,50,17.27,GM,2022-07-28 23:09:49
94,Maldonado,-34.6667,-54.9167,51.22,77,98,17.11,UY,2022-07-28 23:09:50
95,Blind River,46.1834,-82.9582,64.36,68,21,14.94,CA,2022-07-28 23:09:50
96,Torbay,47.6666,-52.7314,57.27,90,90,11.99,CA,2022-07-28 23:09:50
97,San Juan,-31.5375,-68.5364,57.18,40,0,7.85,AR,2022-07-28 23:09:51
98,Esmeraldas,-19.7625,-44.3139,70.66,44,1,2.06,BR,2022-07-28 23:09:51
99,La Rioja,42.25,-2.5,62.38,72,62,4.38,ES,2022-07-28 23:09:51
100,Tasiilaq,65.6145,-37.6368,41.16,96,100,3.78,GL,2022-07-28 23:09:52
101,Nevel,56.0209,29.9284,52.25,98,28,4.59,RU,2022-07-28 23:09:52
102,Beloha,-25.1667,45.05,63.59,81,8,11.88,MG,2022-07-28 23:07:25
103,Quatre Cocos,-20.2078,57.7625,70.09,78,9,10.49,MU,2022-07-28 23:09:53
104,Saldanha,-33.0117,17.9442,57.09,78,51,15.73,ZA,2022-07-28 23:09:53
105,Clyde River,70.4692,-68.5914,37.63,100,100,9.22,CA,2022-07-28 23:09:53
106,Lebu,-37.6167,-73.65,49.3,86,0,16.33,CL,2022-07-28 23:09:54
107,Waddan,29.1614,16.139,84.61,31,0,10.47,LY,2022-07-28 23:09:54
108,Effingham,32.3669,-81.3332,91.85,75,99,6.93,US,2022-07-28 23:05:45
109,Luderitz,-26.6481,15.1594,53.31,87,62,2.53,NA,2022-07-28 23:09:55
110,Coquimbo,-29.9533,-71.3436,55.13,94,0,4.61,CL,2022-07-28 23:09:55
111,Goderich,43.7501,-81.7165,74.91,69,55,8.39,CA,2022-07-28 23:09:55
112,Cabedelo,-6.9811,-34.8339,75.87,83,6,10.65,BR,2022-07-28 23:07:20
113,Ilulissat,69.2167,-51.1,55.42,44,40,9.22,GL,2022-07-28 23:09:56
114,Port Hawkesbury,45.6169,-61.3485,73.78,83,3,7.0,CA,2022-07-28 23:06:51
115,Adrar,20.5022,-10.0711,96.98,9,31,3.15,MR,2022-07-28 23:09:56
116,Mehamn,71.0357,27.8492,48.15,87,100,6.91,NO,2022-07-28 23:09:56
117,Mwinilunga,-11.7358,24.4293,56.05,47,100,3.51,ZM,2022-07-28 23:09:57
118,Dunmore Town,25.5,-76.65,82.04,76,6,16.91,BS,2022-07-28 23:09:57
119,Nouadhibou,20.931,-17.0347,73.51,74,0,30.09,MR,2022-07-28 23:09:58
120,Koppa,13.5304,75.3633,69.85,96,53,1.1,IN,2022-07-28 23:09:58
121,Saint George,37.1041,-113.5841,99.43,29,0,12.66,US,2022-07-28 23:07:54
122,Thinadhoo,0.5333,72.9333,81.34,76,93,12.64,MV,2022-07-28 23:06:33
123,Padang,-0.9492,100.3543,77.72,86,100,4.94,ID,2022-07-28 23:09:59
124,Bridlington,54.0831,-0.1919,61.9,84,100,11.48,GB,2022-07-28 23:09:59
125,Zhanaozen,43.3,52.8,74.12,59,1,7.25,KZ,2022-07-28 23:09:59
126,Camana,-16.6228,-72.7111,60.85,85,35,10.54,PE,2022-07-28 23:06:30
127,Qaqortoq,60.7167,-46.0333,46.44,75,36,5.82,GL,2022-07-28 23:10:00
128,Nuuk,64.1835,-51.7216,45.21,81,75,3.44,GL,2022-07-28 23:06:25
129,Port Shepstone,-30.7414,30.455,64.31,87,71,10.0,ZA,2022-07-28 23:10:00
130,Nanortalik,60.1432,-45.2371,44.91,85,61,4.94,GL,2022-07-28 23:10:00
131,Grindavik,63.8424,-22.4338,46.87,100,100,12.66,IS,2022-07-28 23:11:01
132,Tangi,34.3006,71.6536,78.8,89,83,1.34,PK,2022-07-28 23:11:01
133,Igarka,67.4667,86.5833,53.26,75,0,13.06,RU,2022-07-28 23:11:02
134,Casablanca,33.5928,-7.6192,75.33,78,0,8.99,MA,2022-07-28 23:06:45
135,Goundam,16.4145,-3.6708,96.12,37,16,12.15,ML,2022-07-28 23:11:02
136,Brae,60.3964,-1.353,53.35,84,100,8.12,GB,2022-07-28 23:11:03
137,Kinshasa,-4.3246,15.3215,75.06,54,68,4.43,CD,2022-07-28 23:06:11
138,Bambous Virieux,-20.3428,57.7575,70.21,77,8,10.2,MU,2022-07-28 23:11:03
139,Najran,17.4924,44.1277,81.14,45,26,5.21,SA,2022-07-28 23:11:04
140,Sechura,-5.5569,-80.8222,69.48,64,7,17.0,PE,2022-07-28 23:11:04
141,Ribeira Grande,38.5167,-28.7,73.31,77,15,4.59,PT,2022-07-28 23:11:04
142,San Ramon De La Nueva Oran,-23.1322,-64.326,61.29,62,100,6.51,AR,2022-07-28 23:11:04
143,Tonantins,-2.8731,-67.8022,75.18,93,68,1.68,BR,2022-07-28 23:11:05
144,Cidreira,-30.1811,-50.2056,59.07,95,100,20.56,BR,2022-07-28 23:11:06
145,Artyom,40.4723,50.333,75.34,84,0,21.81,AZ,2022-07-28 23:11:06
146,Coihaique,-45.5752,-72.0662,41.61,81,100,5.75,CL,2022-07-28 23:10:02
147,Rustenburg,-25.6676,27.2421,55.65,49,5,3.67,ZA,2022-07-28 23:11:07
148,Pangody,65.85,74.4859,59.94,69,45,5.75,RU,2022-07-28 23:11:07
149,Tacoronte,28.4769,-16.4102,69.15,72,100,21.0,ES,2022-07-28 23:11:07
150,Ponta Do Sol,32.6667,-17.1,74.71,84,1,2.53,PT,2022-07-28 23:11:08
151,Codrington,-38.2667,141.9667,46.4,78,20,1.41,AU,2022-07-28 23:11:08
152,Mezen,65.8522,44.24,56.35,97,86,5.32,RU,2022-07-28 23:11:08
153,Semnan,35.5729,53.3971,83.75,48,62,8.14,IR,2022-07-28 23:11:09
154,Saint-Pierre,-21.3393,55.4781,67.68,74,0,8.05,RE,2022-07-28 23:11:09
155,Saint-Denis,48.9167,2.3333,71.15,48,0,6.91,FR,2022-07-28 23:11:10
156,Hambantota,6.1241,81.1185,77.02,90,100,5.37,LK,2022-07-28 23:11:10
157,Inirida,3.8653,-67.9239,72.63,96,97,2.44,CO,2022-07-28 23:11:11
158,Marietta,33.9526,-84.5499,91.94,64,0,10.36,US,2022-07-28 23:08:03
159,San Pedro,14.35,121.0167,81.36,92,100,8.05,PH,2022-07-28 23:06:42
160,Iquique,-20.2208,-70.1431,59.04,81,20,6.35,CL,2022-07-28 23:11:12
161,Mangai,-4.05,19.5333,74.79,49,48,0.45,CD,2022-07-28 23:11:12
162,Riyadh,24.6877,46.7219,89.74,36,100,4.9,SA,2022-07-28 23:09:54
163,Luanda,-8.8368,13.2343,68.07,91,61,6.91,AO,2022-07-28 23:11:12
164,Tyukhtet,56.5389,89.3011,56.23,88,88,2.28,RU,2022-07-28 23:11:13
165,Berlevag,70.8578,29.0864,48.2,87,100,9.22,NO,2022-07-28 23:11:13
166,Axim,4.8699,-2.2405,75.72,77,68,10.67,GH,2022-07-28 23:11:14
167,Cape Canaveral,28.4058,-80.6048,89.67,70,0,12.66,US,2022-07-28 23:11:14
168,Bocas Del Toro,9.3333,-82.25,80.24,75,77,5.08,PA,2022-07-28 23:11:14
169,Yangambi,0.8102,24.4336,69.96,97,100,2.53,CD,2022-07-28 23:11:15
170,Porto Novo,6.4965,2.6036,76.46,78,100,9.35,BJ,2022-07-28 23:11:15
171,San Cristobal,7.7669,-72.225,69.98,92,94,3.53,VE,2022-07-28 23:11:17
172,Margate,51.3813,1.3862,63.7,77,71,3.0,GB,2022-07-28 23:11:17
173,Huntingdon,52.3305,-0.1865,63.27,78,76,7.34,GB,2022-07-28 23:07:54
174,Marzuq,14.4,46.4667,82.44,43,74,6.4,YE,2022-07-28 23:11:18
175,Hualmay,-11.0964,-77.6139,62.78,81,23,11.32,PE,2022-07-28 23:11:18
176,Kedrovyy,56.1667,91.8167,63.01,92,80,1.99,RU,2022-07-28 23:11:19
177,Feira De Santana,-12.2667,-38.9667,64.96,90,5,4.16,BR,2022-07-28 23:10:43
178,Makurdi,7.7411,8.5121,71.91,97,100,6.42,NG,2022-07-28 23:08:16
179,Namibe,-15.1961,12.1522,60.76,81,20,7.47,AO,2022-07-28 23:12:20
180,Bonthe,7.5264,-12.505,76.51,75,99,10.71,SL,2022-07-28 23:12:20
181,George,-33.963,22.4617,59.43,52,0,5.88,ZA,2022-07-28 23:12:20
182,Cururupu,-1.8283,-44.8683,74.61,88,40,3.53,BR,2022-07-28 23:12:21
183,Richards Bay,-28.783,32.0377,64.81,83,2,15.59,ZA,2022-07-28 23:12:21
184,Dibulla,11.2725,-73.3091,78.49,86,92,1.52,CO,2022-07-28 23:12:21
185,Lodwar,3.1191,35.5973,80.74,46,59,13.69,KE,2022-07-28 23:12:22
186,Uvinza,-5.1036,30.3911,73.2,53,94,2.53,TZ,2022-07-28 23:12:22
187,Morondava,-20.2833,44.2833,68.23,78,0,4.43,MG,2022-07-28 23:12:22
188,Mattru,7.6244,-11.8332,71.67,92,100,3.27,SL,2022-07-28 23:12:23
189,Bandarbeyla,9.4942,50.8122,76.06,82,64,26.51,SO,2022-07-28 23:12:23
190,Bathsheba,13.2167,-59.5167,81.21,87,20,14.97,BB,2022-07-28 23:12:23
191,Valmiera,57.5411,25.4275,57.16,96,100,3.65,LV,2022-07-28 23:12:24
192,Rio Verde De Mato Grosso,-18.9181,-54.8442,77.81,24,5,2.19,BR,2022-07-28 23:12:24
193,Mysen,59.5535,11.3258,59.68,69,18,2.06,NO,2022-07-28 23:12:25
194,Tocopilla,-22.092,-70.1979,62.91,72,38,10.58,CL,2022-07-28 23:11:53
195,Ballina,-28.8667,153.5667,57.02,83,1,5.61,AU,2022-07-28 23:12:25
196,Georgetown,5.4112,100.3354,80.89,85,20,4.61,MY,2022-07-28 23:08:39
197,Chemax,20.65,-87.9333,92.93,41,27,8.41,MX,2022-07-28 23:12:25
198,Eyl,7.9803,49.8164,76.08,77,55,20.85,SO,2022-07-28 23:12:26
199,Bara,10.3744,10.7288,72.43,94,73,8.43,NG,2022-07-28 23:12:06
200,Bandrele,-12.9067,45.1914,71.35,88,0,3.44,YT,2022-07-28 23:12:26
201,Barendrecht,51.85,4.5333,64.09,70,100,10.36,NL,2022-07-28 23:11:25
202,Santa Luzia,-19.7697,-43.8514,70.7,44,1,1.28,BR,2022-07-28 23:09:03
203,Presidencia Roque Saenz Pena,-26.7852,-60.4388,55.54,74,100,11.59,AR,2022-07-28 23:12:27
204,Raudeberg,61.9875,5.1352,54.27,78,60,8.23,NO,2022-07-28 23:12:27
205,Qasigiannguit,68.8193,-51.1922,55.65,54,94,7.23,GL,2022-07-28 23:12:27
206,Kidal,18.4411,1.4078,83.05,49,93,16.55,ML,2022-07-28 23:12:28
207,Itarema,-2.9248,-39.9167,78.96,74,59,15.41,BR,2022-07-28 23:12:28
208,Benghazi,32.1167,20.0667,80.47,74,0,8.52,LY,2022-07-28 23:12:28
209,Balkanabat,39.5108,54.3671,83.75,52,4,7.25,TM,2022-07-28 23:09:16
210,Menongue,-14.6585,17.691,52.84,36,5,4.54,AO,2022-07-28 23:12:29
211,Khipro,25.8285,69.3772,82.2,76,88,18.3,PK,2022-07-28 23:08:23
212,Taoudenni,22.6783,-3.9836,105.64,13,76,9.62,ML,2022-07-28 23:12:30
213,Korem,12.5058,39.5228,58.24,77,100,5.21,ET,2022-07-28 23:12:30
214,Karpathos,35.507,27.2132,75.16,73,0,18.41,GR,2022-07-28 23:12:30
215,Shahpur,16.7,76.8333,83.37,70,100,2.95,IN,2022-07-28 23:12:31
216,Damara,4.9608,18.7035,69.01,98,99,2.01,CF,2022-07-28 23:12:31
217,Dingle,10.9995,122.6711,79.9,88,100,6.76,PH,2022-07-28 23:12:32
218,Subate,56.0062,25.9076,50.72,98,36,5.19,LV,2022-07-28 23:12:32
219,Ankazoabo,-22.2833,44.5167,60.48,74,0,6.38,MG,2022-07-28 23:12:32
220,Ramsar,36.9226,50.6426,77.97,84,75,7.47,IR,2022-07-28 23:12:33
221,Thunder Bay,48.4001,-89.3168,62.62,78,79,7.54,CA,2022-07-28 23:12:33
222,Nokha,27.6,73.4167,83.21,71,100,14.2,IN,2022-07-28 23:12:33
223,Touros,-5.1989,-35.4608,75.97,81,7,12.08,BR,2022-07-28 23:13:34
224,Urucara,-2.5364,-57.76,79.99,67,89,2.28,BR,2022-07-28 23:13:34
225,Pangnirtung,66.1451,-65.7125,55.36,64,42,4.79,CA,2022-07-28 23:13:34
226,Yarada,17.65,83.2667,83.12,75,15,4.81,IN,2022-07-28 23:13:35
227,Riviere-Au-Renard,48.9957,-64.3971,63.7,81,85,10.0,CA,2022-07-28 23:13:35
228,San Rafael,-34.6177,-68.3301,54.0,22,0,5.97,AR,2022-07-28 23:13:35
229,Verkhnetulomskiy,68.6073,31.7962,48.33,89,100,5.03,RU,2022-07-28 23:13:36
230,Henties Bay,-22.116,14.2845,53.35,90,15,6.24,NA,2022-07-28 23:13:36
231,Olinda,-8.0089,-34.8553,76.73,78,40,5.75,BR,2022-07-28 23:10:29
232,Kutum,14.2,24.6667,77.25,53,100,9.69,SD,2022-07-28 23:13:37
233,Chabahar,25.2919,60.643,80.8,80,100,9.19,IR,2022-07-28 23:13:37
234,Santo Antonio De Jesus,-12.9689,-39.2614,63.72,94,11,2.59,BR,2022-07-28 23:13:37
235,Santa Lucia,27.9117,-15.5407,66.76,73,20,29.93,ES,2022-07-28 23:13:37
236,Buriti Bravo,-5.8372,-43.8336,80.69,41,31,2.04,BR,2022-07-28 23:13:38
237,Aktash,50.3,87.7333,45.99,57,52,3.22,RU,2022-07-28 23:13:38
238,Albany,42.6001,-73.9662,82.81,62,59,1.99,US,2022-07-28 23:11:22
239,Gazanjyk,39.2446,55.5154,83.62,62,66,12.62,TM,2022-07-28 23:13:39
240,Doctor Juan Leon Mallorquin,-25.4,-55.2667,74.93,57,100,9.64,PY,2022-07-28 23:13:39
241,Shubarkuduk,49.1447,56.4872,71.22,58,6,5.21,KZ,2022-07-28 23:13:39
242,Lethem,3.3803,-59.7968,77.29,87,99,2.95,GY,2022-07-28 23:13:40
243,Bani,18.2833,-70.3333,79.86,66,11,11.27,DO,2022-07-28 23:13:40
244,Konevo,62.1215,39.3192,63.41,99,100,3.78,RU,2022-07-28 23:13:40
245,Veraval,20.9,70.3667,80.19,82,93,9.22,IN,2022-07-28 23:13:41
246,Trincomalee,8.5711,81.2335,78.51,86,100,7.18,LK,2022-07-28 23:10:03
247,Nioro,13.35,-15.75,78.57,83,60,9.22,GM,2022-07-28 23:13:41
248,Imbituba,-28.24,-48.6703,74.86,66,100,7.78,BR,2022-07-28 23:13:42
249,Ambilobe,-13.2,49.05,63.86,89,40,2.77,MG,2022-07-28 23:13:42
250,Sao Joao Da Barra,-21.6403,-41.0511,72.27,83,34,21.27,BR,2022-07-28 23:13:43
251,Chimbote,-9.0853,-78.5783,63.41,81,93,10.78,PE,2022-07-28 23:13:43
252,Shahrud,36.4182,54.9763,73.24,68,84,11.07,IR,2022-07-28 23:13:43
253,Aden,12.7794,45.0367,84.97,70,12,10.67,YE,2022-07-28 23:11:21
254,Kudahuvadhoo,2.6708,72.8944,82.09,75,78,13.2,MV,2022-07-28 23:13:44
255,Sao Felix Do Xingu,-6.6447,-51.995,77.11,41,9,1.23,BR,2022-07-28 23:13:44
256,Jacareacanga,-6.2222,-57.7528,79.52,43,4,0.34,BR,2022-07-28 23:13:44
257,San Matias,-16.3667,-58.4,81.64,25,80,4.59,BO,2022-07-28 23:13:45
258,Puri,19.8,85.85,82.92,77,83,9.73,IN,2022-07-28 23:09:59
259,Concarneau,47.875,-3.9225,65.82,75,87,5.48,FR,2022-07-28 23:09:19
260,Port-Cartier,50.0334,-66.8654,62.74,87,48,9.53,CA,2022-07-28 23:13:45
261,Kovdor,67.5662,30.4758,47.86,85,100,9.64,RU,2022-07-28 23:13:46
262,Sao Miguel Do Araguaia,-13.275,-50.1628,76.84,28,23,2.39,BR,2022-07-28 23:13:46
263,Charta,7.2803,-72.9678,58.53,96,98,2.1,CO,2022-07-28 23:13:47
264,Rincon,32.296,-81.2354,86.92,77,100,8.52,US,2022-07-28 23:11:49
265,Vila Velha,-20.3297,-40.2925,73.35,80,0,8.05,BR,2022-07-28 23:13:47
266,Inzer,54.2167,57.5556,51.3,95,65,2.44,RU,2022-07-28 23:13:48
267,Glace Bay,46.1969,-59.957,69.89,74,75,6.91,CA,2022-07-28 23:14:48
268,Vila Franca Do Campo,37.7167,-25.4333,72.01,87,12,3.49,PT,2022-07-28 23:14:48
269,Nileshwar,12.25,75.1,78.49,93,59,9.44,IN,2022-07-28 23:14:49
270,Ilheus,-14.7889,-39.0494,75.02,83,75,5.75,BR,2022-07-28 23:14:49
271,Camabatela,-8.1881,15.375,59.45,81,90,4.76,AO,2022-07-28 23:14:49
272,Wagar,16.1525,36.2032,82.49,61,100,15.77,SD,2022-07-28 23:14:50
273,Lukovetskiy,64.2956,41.9211,61.18,93,80,4.14,RU,2022-07-28 23:14:50
274,Qandala,11.472,49.8728,88.18,50,0,7.25,SO,2022-07-28 23:14:50
275,Kavaratti,10.5669,72.642,81.14,82,100,17.72,IN,2022-07-28 23:14:51
276,Tarancon,40.0085,-3.0073,77.2,26,0,5.93,ES,2022-07-28 23:14:51
277,Kolodeznyy,51.3333,39.1833,63.95,92,87,7.65,RU,2022-07-28 23:14:51
278,Kjollefjord,70.9457,27.3465,48.25,87,100,6.91,NO,2022-07-28 23:14:52
279,Porto Walter,-8.2686,-72.7439,79.25,64,14,1.66,BR,2022-07-28 23:11:22
280,Mollendo,-17.0231,-72.0147,60.28,84,65,9.57,PE,2022-07-28 23:14:52
281,Moramanga,-18.9333,48.2,58.3,99,99,2.1,MG,2022-07-28 23:14:52
282,Hamilton,39.1834,-84.5333,87.19,56,0,8.05,US,2022-07-28 23:12:58
283,Oudtshoorn,-33.5907,22.2014,57.16,40,0,6.85,ZA,2022-07-28 23:14:53
284,Tamandare,-8.7597,-35.1047,74.44,85,11,4.18,BR,2022-07-28 23:14:53
285,Dungarpur,23.8333,73.7167,78.57,80,97,5.82,IN,2022-07-28 23:14:54
286,Carnarvon,-24.8667,113.6333,69.53,56,100,1.3,AU,2022-07-28 23:14:54
287,Monzon,41.9108,0.1941,76.42,81,34,5.93,ES,2022-07-28 23:14:54
288,Lons-Le-Saunier,46.75,5.75,71.24,57,100,3.8,FR,2022-07-28 23:14:55
289,Sao Borja,-28.6606,-56.0044,55.94,93,100,12.33,BR,2022-07-28 23:14:55
290,Dyersburg,36.0345,-89.3856,87.3,89,0,4.61,US,2022-07-28 23:14:55
291,Arlit,18.7369,7.3853,90.12,44,100,16.78,NE,2022-07-28 23:14:56
292,Zhanakorgan,43.9098,67.2495,77.52,39,0,4.81,KZ,2022-07-28 23:14:56
293,Rock Sound,24.9,-76.2,81.82,75,4,16.87,BS,2022-07-28 23:14:17
294,Dese,11.1333,39.6333,55.15,85,91,0.96,ET,2022-07-28 23:14:57
295,Necocli,8.4234,-76.786,76.23,92,100,3.44,CO,2022-07-28 23:14:57
296,Hobyo,5.3505,48.5268,75.33,88,77,22.39,SO,2022-07-28 23:14:57
297,Belem De Sao Francisco,-8.7539,-38.9658,74.8,64,3,15.93,BR,2022-07-28 23:14:58
298,Porbandar,21.6422,69.6093,80.78,79,99,8.23,IN,2022-07-28 23:14:58
299,Galle,6.0367,80.217,78.4,86,100,6.87,LK,2022-07-28 23:14:58
300,Conde,-7.2597,-34.9075,74.66,88,0,8.05,BR,2022-07-28 23:14:59
301,Micheweni,-4.9667,39.8333,73.0,85,14,7.9,TZ,2022-07-28 23:14:59
302,Bilma,18.6853,12.9164,84.52,53,100,21.07,NE,2022-07-28 23:14:59
303,Fuente Palmera,37.7049,-5.0996,79.75,48,0,5.57,ES,2022-07-28 23:15:00
304,Itauna,-20.0753,-44.5764,63.39,47,3,1.3,BR,2022-07-28 23:15:00
305,Rawson,-43.3002,-65.1023,49.03,59,4,22.35,AR,2022-07-28 23:15:00
306,Butembo,0.15,29.2833,56.73,97,86,1.12,CD,2022-07-28 23:15:00
307,Zaozerne,45.1582,33.2787,74.39,64,0,5.17,UA,2022-07-28 23:15:01
308,Ardalstangen,61.2371,7.6983,58.39,65,35,0.92,NO,2022-07-28 23:15:01
309,Birao,10.2849,22.7882,69.48,97,99,3.44,CF,2022-07-28 23:15:02
310,Abomey,7.1829,1.9912,70.3,93,100,4.92,BJ,2022-07-28 23:15:03
311,Sasni,27.7167,78.0833,82.72,78,91,2.15,IN,2022-07-28 23:15:03
312,Do Gonbadan,30.3586,50.7981,78.89,94,75,0.0,IR,2022-07-28 23:15:03
313,Rio Grande,-32.035,-52.0986,53.71,87,100,17.45,BR,2022-07-28 23:15:04
314,Llanes,43.4198,-4.7549,67.28,83,84,3.98,ES,2022-07-28 23:15:04
315,Necochea,-38.5473,-58.7368,48.0,80,98,16.22,AR,2022-07-28 23:16:05
316,Inhambane,-23.865,35.3833,62.82,76,0,2.95,MZ,2022-07-28 23:16:05
317,Severodvinsk,64.5635,39.8302,60.91,88,97,3.31,RU,2022-07-28 23:16:06
318,Sao Gabriel Da Cachoeira,-0.1303,-67.0892,73.44,96,32,3.02,BR,2022-07-28 23:16:06
319,Thompson,55.7435,-97.8558,78.96,36,40,2.3,CA,2022-07-28 23:16:07
320,Gat,31.61,34.7642,82.4,75,0,4.74,IL,2022-07-28 23:16:07
321,Terra Rica,-22.7094,-52.6169,73.85,30,51,3.38,BR,2022-07-28 23:16:08
322,Otacilio Costa,-27.4831,-50.1219,63.0,73,100,5.39,BR,2022-07-28 23:16:08
323,Privolzhsk,57.3808,41.2886,63.18,94,82,2.01,RU,2022-07-28 23:16:09
324,Marysville,48.0518,-122.1771,100.09,53,0,12.66,US,2022-07-28 23:16:06
325,Karaton,-6.3424,106.1045,72.72,94,95,2.33,ID,2022-07-28 23:16:09
326,Bubaque,11.2833,-15.8333,79.7,82,40,14.36,GW,2022-07-28 23:16:09
327,Safakulevo,54.9901,62.5442,57.16,89,100,11.61,RU,2022-07-28 23:16:10
328,Skibbereen,51.55,-9.2667,62.11,93,93,5.21,IE,2022-07-28 23:16:10
329,Augustow,53.8432,22.9798,51.89,93,24,5.57,PL,2022-07-28 23:16:10
330,Oksfjord,70.2396,22.3479,50.18,86,48,4.59,NO,2022-07-28 23:16:11
331,Pospelikha,51.95,81.7667,60.71,82,44,9.62,RU,2022-07-28 23:16:11
332,Umm Kaddadah,13.6017,26.6876,82.35,55,100,9.22,SD,2022-07-28 23:16:12
333,Alghero,40.5589,8.3181,69.89,94,0,1.14,IT,2022-07-28 23:16:12
334,Mikhaylov,54.2292,39.0186,64.04,92,100,13.35,RU,2022-07-28 23:16:12
335,Fenoarivo,-18.933,47.4354,57.27,88,100,5.75,MG,2022-07-28 23:16:12
336,Honningsvag,70.9821,25.9704,47.95,81,100,9.22,NO,2022-07-28 23:16:13
337,Marquette,46.5333,-87.6335,67.44,60,46,10.85,US,2022-07-28 23:16:13
338,Harper,4.375,-7.7169,74.97,77,100,9.24,LR,2022-07-28 23:14:08
339,Pontes E Lacerda,-15.2261,-59.3353,77.49,31,8,3.09,BR,2022-07-28 23:15:16
340,Medea,36.2642,2.7539,75.13,54,0,3.71,DZ,2022-07-28 23:16:14
341,Bereznik,62.8551,42.7072,64.45,98,100,6.04,RU,2022-07-28 23:16:14
342,General Roca,-39.0333,-67.5833,56.62,46,2,11.99,AR,2022-07-28 23:16:15
343,Kralendijk,12.15,-68.2667,80.58,83,40,11.5,BQ,2022-07-28 23:16:15
344,Muzhi,65.3667,64.6667,59.92,61,60,6.46,RU,2022-07-28 23:16:15
345,Husavik,66.0449,-17.3389,49.84,84,30,3.71,IS,2022-07-28 23:16:16
346,Camacupa,-12.0167,17.4833,58.86,26,100,1.74,AO,2022-07-28 23:16:16
347,Huancabamba,-5.2386,-79.4506,62.8,73,17,2.24,PE,2022-07-28 23:16:17
348,Ariquemes,-9.9133,-63.0408,79.39,38,1,0.54,BR,2022-07-28 23:16:17
349,Bereda,43.2686,-7.5406,61.14,100,17,0.83,ES,2022-07-28 23:16:17
350,Lipin Bor,60.2622,37.9763,60.55,96,100,6.93,RU,2022-07-28 23:16:18
351,Vidalia,32.2177,-82.4135,89.71,55,0,9.22,US,2022-07-28 23:16:18
352,Usinsk,65.9939,57.5281,59.52,66,55,12.01,RU,2022-07-28 23:16:18
353,Abu Samrah,35.3029,37.1841,81.64,29,0,6.06,SY,2022-07-28 23:16:19
354,Tanda,26.55,82.65,82.67,76,74,2.15,IN,2022-07-28 23:16:19
355,Aksarka,66.5606,67.7975,59.95,70,65,7.7,RU,2022-07-28 23:16:19
356,Warri,5.5167,5.75,73.06,96,100,4.7,NG,2022-07-28 23:16:20
357,Kilindoni,-7.9139,39.6668,74.53,82,19,14.03,TZ,2022-07-28 23:16:20
358,Kankon,15.0167,74.0167,78.6,92,76,7.05,IN,2022-07-28 23:16:20
359,Verkhniye Tatyshly,56.2912,55.8575,55.36,84,46,6.49,RU,2022-07-28 23:16:21
360,Klaksvik,62.2266,-6.589,52.72,92,92,15.14,FO,2022-07-28 23:16:21
361,Rio Gallegos,-51.6226,-69.2181,41.05,81,0,27.63,AR,2022-07-28 23:17:22
362,Tambopata,-12.7333,-69.1833,79.23,55,26,2.44,PE,2022-07-28 23:17:22
363,Japura,-0.3167,102.35,74.25,96,95,2.44,ID,2022-07-28 23:17:22
364,Montecristo,8.2971,-74.4733,78.13,90,78,1.5,CO,2022-07-28 23:16:12
365,Banda Aceh,5.5577,95.3222,77.77,84,99,13.2,ID,2022-07-28 23:17:23
366,Podor,16.6527,-14.9587,83.48,61,83,19.44,MR,2022-07-28 23:17:23
367,Tuma,55.148,40.5537,63.77,97,100,2.28,RU,2022-07-28 23:17:24
368,Roald,62.5833,6.1333,57.76,87,0,12.66,NO,2022-07-28 23:17:24
369,Brest,52.1,23.7,56.75,74,33,2.19,BY,2022-07-28 23:17:24
370,Ancud,-41.8697,-73.8203,45.23,78,100,4.59,CL,2022-07-28 23:17:25
371,Leshukonskoye,64.8989,45.7622,62.11,98,84,1.68,RU,2022-07-28 23:17:25
372,Kalangala,-0.3089,32.225,69.15,72,72,10.13,UG,2022-07-28 23:17:26
373,Havoysund,70.9963,24.6622,48.43,84,82,13.02,NO,2022-07-28 23:17:26
374,Jalu,29.0331,21.5482,85.44,40,0,16.28,LY,2022-07-28 23:17:26
375,Viedma,-40.8135,-62.9967,47.28,55,24,9.64,AR,2022-07-28 23:12:50
376,Comodoro Rivadavia,-45.8667,-67.5,51.66,43,0,23.02,AR,2022-07-28 23:17:27
377,Springbok,-29.6643,17.8865,44.4,84,77,7.38,ZA,2022-07-28 23:17:27
378,Ostrovnoy,68.0531,39.5131,50.47,89,85,14.09,RU,2022-07-28 23:17:28
379,Yertsevo,60.7966,40.086,62.17,99,100,4.94,RU,2022-07-28 23:17:28
380,Sipoo,60.3775,25.2691,55.81,82,0,6.91,FI,2022-07-28 23:17:28
381,Colquechaca,-18.6667,-66.0167,41.63,20,80,4.03,BO,2022-07-28 23:17:29
382,Piacabucu,-10.4056,-36.4344,72.64,90,29,9.64,BR,2022-07-28 23:17:29
383,Raga,8.4596,25.678,67.1,98,100,3.67,SS,2022-07-28 23:17:30
384,Syracuse,37.0881,15.2792,80.19,73,0,2.91,IT,2022-07-28 23:17:30
385,Laje,-10.1833,-40.9667,71.35,56,30,9.4,BR,2022-07-28 23:17:30
386,Antalaha,-14.9003,50.2788,67.68,83,42,7.25,MG,2022-07-28 23:17:31
387,Vallenar,-28.5708,-70.7581,64.65,47,91,2.51,CL,2022-07-28 23:17:31
388,Fomboni,-12.28,43.7425,75.94,77,67,16.11,KM,2022-07-28 23:17:31
389,Marawi,7.9986,124.2928,71.78,89,100,3.76,PH,2022-07-28 23:17:32
390,Oranjemund,-28.55,16.4333,56.26,77,69,8.23,NA,2022-07-28 23:17:32
391,Marystown,47.1666,-55.1483,64.85,100,67,3.0,CA,2022-07-28 23:13:49
392,Ugoofaaru,5.6667,73.0,81.37,79,82,16.98,MV,2022-07-28 23:17:33
393,Kalemie,-5.9475,29.1947,72.55,52,51,1.28,CD,2022-07-28 23:17:33
394,Takoradi,4.8845,-1.7554,75.13,79,82,11.03,GH,2022-07-28 23:12:50
395,Pisco,-13.7,-76.2167,60.85,82,0,16.11,PE,2022-07-28 23:17:33
396,Salvador,13.8333,-88.9167,78.04,89,100,1.79,SV,2022-07-28 23:17:34
397,Picota,-6.9197,-76.3304,82.89,70,36,1.7,PE,2022-07-28 23:17:34
398,Eenhana,-17.4667,16.3333,59.95,32,61,6.22,NA,2022-07-28 23:17:35
399,Pasinler,39.9803,41.6764,49.19,47,0,3.94,TR,2022-07-28 23:17:35
400,Mikhaylovka,50.06,43.2379,69.71,55,83,2.39,RU,2022-07-28 23:17:35
401,Monte Alegre,-2.0078,-54.0692,79.83,70,74,2.77,BR,2022-07-28 23:17:36
402,Ustye,59.6304,39.736,62.71,99,100,3.71,RU,2022-07-28 23:17:36
403,Atasu,48.6814,71.6433,66.61,71,72,6.04,KZ,2022-07-28 23:17:37
404,Benguela,-12.5763,13.4055,67.57,88,30,2.93,AO,2022-07-28 23:17:37
405,Santa Rosa,14.3122,121.1114,82.11,90,99,4.7,PH,2022-07-28 23:17:37
406,Novyy Urengoy,66.0833,76.6333,58.53,81,33,5.03,RU,2022-07-28 23:18:38
407,Puerto Colombia,10.9878,-74.9547,80.69,86,100,4.65,CO,2022-07-28 23:18:38
408,Pucallpa,-8.3791,-74.5539,86.04,62,20,3.44,PE,2022-07-28 23:18:39
409,Krasnaya Gora,52.9995,31.6023,56.32,83,41,2.46,RU,2022-07-28 23:18:39
410,Vereshchagino,58.0789,54.6557,54.43,80,5,1.59,RU,2022-07-28 23:18:40
411,Saryozek,44.3583,77.9753,71.92,52,57,4.72,KZ,2022-07-28 23:18:40
412,Tukrah,32.5341,20.5791,78.67,79,0,5.28,LY,2022-07-28 23:18:40
413,Uporovo,56.3109,66.2693,57.29,86,95,11.56,RU,2022-07-28 23:18:41
414,Ibotirama,-12.1853,-43.2206,76.64,37,9,3.91,BR,2022-07-28 23:18:30
415,Tabuk,17.4189,121.4443,77.05,89,100,1.54,PH,2022-07-28 23:18:41
416,Abha,18.2164,42.5053,69.62,52,0,0.0,SA,2022-07-28 23:18:41
417,Matagami,49.7502,-77.6328,64.51,77,40,3.44,CA,2022-07-28 23:17:35
418,Hazorasp,41.3194,61.0742,76.84,33,1,9.6,UZ,2022-07-28 23:18:42
419,Susangerd,31.5608,48.1831,92.21,52,37,12.08,IR,2022-07-28 23:18:42
420,Sambava,-14.2667,50.1667,67.33,87,41,9.33,MG,2022-07-28 23:18:42
421,Havre-Saint-Pierre,50.2334,-63.5986,61.16,88,20,13.8,CA,2022-07-28 23:18:43
422,Pimentel,-6.8367,-79.9342,62.89,77,0,19.57,PE,2022-07-28 23:18:43
423,Qiryat Shemona,33.2073,35.5721,78.51,58,0,3.29,IL,2022-07-28 23:18:43
424,Shache,38.4167,77.2406,81.72,20,92,9.19,CN,2022-07-28 23:18:44
425,Gorahun,7.4661,-11.2375,70.54,90,93,2.73,SL,2022-07-28 23:18:44
426,Tekanto,21.0167,-89.1,72.41,98,98,6.78,MX,2022-07-28 23:18:44
427,Beliu,46.4833,21.9833,68.99,54,32,6.04,RO,2022-07-28 23:18:45
428,Odweyne,9.4092,45.064,73.45,48,4,16.91,SO,2022-07-28 23:18:45
429,Sherghati,24.5667,84.7833,80.22,75,82,4.88,IN,2022-07-28 23:18:46
430,Ullapool,57.8987,-5.1604,59.34,83,75,1.25,GB,2022-07-28 23:16:49
431,Belmonte,-15.8631,-38.8828,70.68,80,0,7.27,BR,2022-07-28 23:18:46
432,Hovin,63.1055,10.225,49.24,83,90,2.57,NO,2022-07-28 23:18:47
433,Mabaruma,8.2,-59.7833,77.02,86,12,3.96,GY,2022-07-28 23:18:47
434,Los Rastrojos,10.0259,-69.2417,77.36,100,73,10.36,VE,2022-07-28 23:18:48
435,Santa Maria,-29.6842,-53.8069,55.47,95,100,10.0,BR,2022-07-28 23:18:48
436,Nizwa,22.9333,57.5333,78.19,77,95,4.99,OM,2022-07-28 23:18:48
437,Piet Retief,-27.0071,30.8132,45.97,94,29,3.56,ZA,2022-07-28 23:18:49
438,Tacuarembo,-31.7333,-55.9833,48.69,84,22,7.63,UY,2022-07-28 23:18:49
439,Talnakh,69.4865,88.3972,51.21,68,0,7.16,RU,2022-07-28 23:18:49
440,Mogadishu,2.0371,45.3438,75.67,84,44,16.8,SO,2022-07-28 23:18:50
441,Grand Gaube,-20.0064,57.6608,70.38,73,1,5.01,MU,2022-07-28 23:18:50
442,Regente Feijo,-22.2214,-51.3028,78.08,34,0,0.0,BR,2022-07-28 23:18:50
443,La Asuncion,11.0333,-63.8628,69.53,100,5,13.8,VE,2022-07-28 23:18:51
444,Velyka Oleksandrivka,47.3197,33.3037,69.13,67,26,9.37,UA,2022-07-28 23:18:51
445,Saint-Francois,46.4154,3.9054,63.84,72,0,3.44,FR,2022-07-28 23:15:37
446,Iracoubo,5.4802,-53.2011,77.38,88,81,6.42,GF,2022-07-28 23:18:52
447,Foumban,5.7291,10.9001,62.46,96,100,1.63,CM,2022-07-28 23:18:52
448,San Jose,37.3394,-121.895,91.9,50,40,13.8,US,2022-07-28 23:14:22
449,Rehoboth,-23.3167,17.0833,55.31,31,8,9.84,NA,2022-07-28 23:17:38
450,Naryan-Mar,67.6713,53.087,63.82,96,99,4.65,RU,2022-07-28 23:18:53
451,Agidel,55.9077,53.9355,56.3,83,44,5.12,RU,2022-07-28 23:18:53
452,Chicama,-7.8447,-79.1469,59.54,75,69,8.14,PE,2022-07-28 23:18:54
453,Nalut,30.3333,10.85,89.98,20,74,13.8,LY,2022-07-28 23:19:54
454,Mana,5.6592,-53.7767,78.22,84,61,5.95,GF,2022-07-28 23:19:55
455,Pitimbu,-7.4706,-34.8086,75.79,83,9,9.17,BR,2022-07-28 23:19:55
456,Gasa,31.5,34.4667,79.38,76,0,6.24,PS,2022-07-28 23:19:55
457,Coalville,52.7167,-1.3667,63.66,59,0,9.22,GB,2022-07-28 23:19:56
458,Garowe,8.4054,48.4845,75.6,55,10,20.51,SO,2022-07-28 23:19:56
459,Alpena,45.0617,-83.4327,74.1,52,20,10.36,US,2022-07-28 23:19:56
460,Omboue,-1.5746,9.2618,71.02,86,79,6.24,GA,2022-07-28 23:19:57
461,Sept-Iles,50.2001,-66.3821,63.05,89,20,14.97,CA,2022-07-28 23:15:31
462,Mpanda,-6.3655,31.0409,67.33,53,45,1.34,TZ,2022-07-28 23:19:57
463,Atar,20.5169,-13.0499,96.82,26,0,7.29,MR,2022-07-28 23:19:57
464,Oistins,13.0667,-59.5333,80.69,74,20,14.97,BB,2022-07-28 23:19:58
465,Yarkovo,57.4028,67.0786,53.49,93,55,7.94,RU,2022-07-28 23:19:58
466,Hollins,37.3413,-79.9431,84.96,76,75,5.75,US,2022-07-28 23:19:58
467,Ginda,30.6945,78.4932,66.34,95,100,1.41,IN,2022-07-28 23:19:59
468,Escanaba,45.7453,-87.0646,70.25,68,40,4.61,US,2022-07-28 23:19:59
469,Abonnema,4.7084,6.7931,73.02,94,100,4.07,NG,2022-07-28 23:19:59
470,Nara,34.6851,135.8049,87.49,49,22,4.9,JP,2022-07-28 23:20:00
471,Togur,58.3631,82.8265,60.64,88,96,8.23,RU,2022-07-28 23:20:00
472,Rovaniemi,66.5,25.7167,53.01,82,100,10.36,FI,2022-07-28 23:20:01
473,Teguldet,57.3064,88.1667,57.24,89,39,1.81,RU,2022-07-28 23:20:01
474,Yukamenskoye,57.8865,52.2416,62.96,67,99,2.8,RU,2022-07-28 23:20:01
475,Kamenka,51.3223,42.7678,69.37,66,72,2.71,RU,2022-07-28 23:20:02
476,Araripe,-7.2125,-40.0461,72.03,45,1,9.51,BR,2022-07-28 23:20:02
477,Moose Factory,51.2585,-80.6094,64.4,94,0,8.05,CA,2022-07-28 23:20:02
478,Harnoli,32.2792,71.5539,87.98,67,99,9.64,PK,2022-07-28 23:20:03
479,Coelho Neto,-4.2567,-43.0128,79.14,58,32,3.38,BR,2022-07-28 23:20:03
480,Lagos,6.5833,3.75,74.91,86,100,5.91,NG,2022-07-28 23:19:56
481,Havelock,34.8791,-76.9013,89.56,83,96,7.0,US,2022-07-28 23:18:40
482,Tanhacu,-14.0214,-41.2481,69.78,63,2,4.9,BR,2022-07-28 23:20:04
483,Mwanza,-2.5167,32.9,73.51,64,66,1.39,TZ,2022-07-28 23:20:04
484,Vigeland,58.0844,7.305,55.94,76,3,5.39,NO,2022-07-28 23:20:05
485,Tanout,14.9709,8.8879,80.13,57,97,9.22,NE,2022-07-28 23:20:05
486,Sisimiut,66.9395,-53.6735,44.67,75,99,4.47,GL,2022-07-28 23:20:06
487,Cavalcante,-13.7975,-47.4583,67.44,37,2,2.98,BR,2022-07-28 23:20:06
488,Tchollire,8.4022,14.1698,69.37,97,99,3.49,CM,2022-07-28 23:20:06
489,Iquitos,-3.7481,-73.2472,78.84,83,20,4.61,PE,2022-07-28 23:20:07
490,Shajapur,23.4333,76.2667,75.76,89,100,6.96,IN,2022-07-28 23:20:07
491,Barrancas,10.9576,-72.7877,76.5,90,99,1.19,CO,2022-07-28 23:20:07
492,Keetmanshoop,-26.5833,18.1333,51.64,30,54,5.97,NA,2022-07-28 23:20:08
493,Oranjestad,12.524,-70.027,82.35,78,20,19.57,AW,2022-07-28 23:19:20
494,Kulhudhuffushi,6.6221,73.07,79.84,82,100,20.13,MV,2022-07-28 23:20:08
495,West Bay,19.3667,-81.4167,85.06,74,40,4.61,KY,2022-07-28 23:20:09
496,Radovitskiy,55.1282,39.7956,61.65,96,99,4.09,RU,2022-07-28 23:20:09
497,Orasac,44.6289,16.0711,64.53,73,1,2.26,BA,2022-07-28 23:20:09
498,Luba,3.4568,8.5547,76.23,86,100,9.86,GQ,2022-07-28 23:21:10
499,Hofn,64.2539,-15.2082,51.75,92,100,1.25,IS,2022-07-28 23:20:39
500,Kokkola,63.8385,23.1307,59.94,80,0,4.61,FI,2022-07-28 23:16:29
501,Jumla,29.2747,82.1838,62.65,98,100,1.16,NP,2022-07-28 23:21:11
502,Hilton Head Island,32.2163,-80.7526,87.91,80,0,8.05,US,2022-07-28 23:19:13
503,Coro,11.4045,-69.6734,80.8,77,100,16.69,VE,2022-07-28 23:21:11
504,Le Robert,14.6775,-60.9392,80.65,39,20,8.05,MQ,2022-07-28 23:21:11
505,Andenes,69.3143,16.1194,48.18,93,75,4.61,NO,2022-07-28 23:18:05
506,Garautha,25.5667,79.3,82.74,73,93,6.58,IN,2022-07-28 23:21:12
507,Letterkenny,54.95,-7.7333,52.95,92,52,2.15,IE,2022-07-28 23:21:12
508,Jawhar,2.7809,45.5005,72.66,87,9,11.79,SO,2022-07-28 23:21:13
509,Leeuwarden,53.2014,5.8086,59.99,79,100,6.91,NL,2022-07-28 23:21:13
510,Sydney Mines,46.2367,-60.2177,69.12,75,75,6.91,CA,2022-07-28 23:21:13
511,Araruama,-22.8728,-42.3431,73.45,67,14,11.77,BR,2022-07-28 23:21:14
512,Exeter,50.7236,-3.5275,59.18,93,0,2.3,GB,2022-07-28 23:17:45
513,Conceicao Do Araguaia,-8.2578,-49.2647,80.74,29,3,2.46,BR,2022-07-28 23:21:14
514,Sao Jose Da Coroa Grande,-8.8978,-35.1478,74.48,85,10,4.27,BR,2022-07-28 23:21:14
515,Campi Salentina,40.3994,18.0186,78.12,77,0,6.91,IT,2022-07-28 23:21:15
516,Pridonskoy,51.6841,39.0727,68.56,83,0,4.47,RU,2022-07-28 23:21:15
517,Villazon,-22.0866,-65.5942,55.35,22,54,16.4,BO,2022-07-28 23:21:15
518,Samana,19.2056,-69.3369,80.56,81,7,9.53,DO,2022-07-28 23:21:16
519,Boa Vista,2.8197,-60.6733,78.78,78,40,3.44,BR,2022-07-28 23:21:16
520,Bardiyah,31.7561,25.0865,77.49,82,0,9.98,LY,2022-07-28 23:21:17
521,Manjacaze,-24.7117,33.8828,55.35,88,0,4.07,MZ,2022-07-28 23:21:17
522,Verkhnyaya Inta,65.9811,60.3094,58.51,61,53,7.76,RU,2022-07-28 23:21:17
523,Calvinia,-31.4707,19.776,45.14,82,36,10.0,ZA,2022-07-28 23:21:18
524,Agirish,61.9247,63.0231,56.01,67,0,1.12,RU,2022-07-28 23:21:18
525,Walvis Bay,-22.9575,14.5053,50.09,87,15,3.44,NA,2022-07-28 23:21:18
526,Cozumel,20.5083,-86.9458,89.67,75,40,11.5,MX,2022-07-28 23:21:19
527,Pasni,25.2631,63.471,81.28,77,100,8.1,PK,2022-07-28 23:21:19
528,Gazojak,41.1875,61.4036,80.33,33,0,10.07,TM,2022-07-28 23:21:20
529,Badvel,14.75,79.05,81.28,74,82,4.56,IN,2022-07-28 23:21:20
530,Bekovo,52.4663,43.712,67.6,76,62,4.25,RU,2022-07-28 23:21:20
531,Staroye Drozhzhanoye,54.7266,47.5677,61.02,82,83,6.62,RU,2022-07-28 23:21:21
532,Varberg,57.1056,12.2508,54.93,91,18,3.44,SE,2022-07-28 23:21:21
533,Grand-Santi,4.25,-54.3833,73.44,98,100,2.15,GF,2022-07-28 23:21:21
534,Biltine,14.5333,20.9167,80.82,65,19,13.67,TD,2022-07-28 23:21:22
535,Kayes,14.0,-11.0,79.97,76,71,10.58,ML,2022-07-28 23:21:22
536,Winneba,5.3511,-0.6231,74.79,83,94,14.9,GH,2022-07-28 23:21:23
537,Gornopravdinsk,60.05,69.9,56.5,77,100,6.38,RU,2022-07-28 23:21:23
538,Toamasina,-18.1667,49.3833,66.2,88,75,2.3,MG,2022-07-28 23:21:23
539,Channel-Port Aux Basques,47.5702,-59.1367,64.63,82,51,4.12,CA,2022-07-28 23:21:23
540,Keti Bandar,24.1447,67.4497,81.36,78,48,16.4,PK,2022-07-28 23:21:24
541,Miracema Do Tocantins,-9.5618,-48.3967,79.14,32,3,2.84,BR,2022-07-28 23:21:24
542,Mokrousovo,55.8103,66.7653,58.5,86,100,13.56,RU,2022-07-28 23:21:25
543,Begowal,31.6167,75.5167,77.43,95,90,6.78,IN,2022-07-28 23:21:25
544,Amargosa,-13.0303,-39.6047,62.22,97,42,3.58,BR,2022-07-28 23:21:25
545,Newport News,36.9788,-76.428,93.97,58,75,13.8,US,2022-07-28 23:22:25
546,Kembe,4.6228,21.8865,68.31,98,100,0.54,CF,2022-07-28 23:22:26
547,Dharchula,29.85,80.5333,71.71,95,97,0.56,IN,2022-07-28 23:22:05
548,Wilmington,34.2257,-77.9447,89.51,69,0,14.97,US,2022-07-28 23:21:57
549,Aiken,33.5835,-81.5998,94.1,59,40,6.91,US,2022-07-28 23:22:26
550,Pafos,34.7667,32.4167,76.78,73,0,4.61,CY,2022-07-28 23:22:27
551,Buchanan,5.8808,-10.0467,73.94,75,61,7.83,LR,2022-07-28 23:22:27
552,Colares,38.7992,-9.4469,69.3,75,20,25.32,PT,2022-07-28 23:22:28
553,Kodinar,20.7903,70.7031,79.5,83,85,9.37,IN,2022-07-28 23:22:28
554,Valparaiso,-33.0393,-71.6273,58.64,72,0,2.3,CL,2022-07-28 23:22:28
555,Herat,34.5,62.0,77.22,27,55,16.78,AF,2022-07-28 23:22:29
556,Sikasso,10.9167,-7.0,76.57,82,95,5.99,ML,2022-07-28 23:22:29
557,Alberton,46.8168,-64.0654,71.73,80,52,10.63,CA,2022-07-28 23:22:29
558,Korla,41.7597,86.1469,85.42,26,99,23.13,CN,2022-07-28 23:22:29
559,Danielskuil,-28.1887,23.5395,57.65,40,56,21.47,ZA,2022-07-28 23:22:30
560,Columbus,39.9612,-82.9988,85.42,58,75,10.36,US,2022-07-28 23:21:00
561,Iralaya,15.0,-83.2333,81.7,76,34,7.87,HN,2022-07-28 23:22:30
562,Teaca,46.9167,24.5167,67.05,85,89,2.19,RO,2022-07-28 23:22:31
563,Lasa,46.6166,10.7002,63.48,91,99,3.02,IT,2022-07-28 23:22:31
564,Pizarro,4.9533,-77.366,77.4,86,77,5.19,CO,2022-07-28 23:22:31
565,Kedrovoye,57.1576,60.5698,56.64,92,90,5.14,RU,2022-07-28 23:22:32
566,Wamba,8.9333,8.6,70.45,98,100,2.93,NG,2022-07-28 23:22:32
567,Norwich,52.6278,1.2983,62.92,77,100,3.44,GB,2022-07-28 23:22:33
568,Corrientes,-27.4806,-58.8341,56.01,86,100,12.66,AR,2022-07-28 23:17:55
569,Luau,-10.7073,22.2247,61.48,33,86,5.5,AO,2022-07-28 23:22:33
570,Barwadih,23.8333,84.1167,78.03,78,90,3.09,IN,2022-07-28 23:22:34
571,Paoua,7.2427,16.4406,67.48,98,99,4.97,CF,2022-07-28 23:22:34
572,Hettstedt,51.65,11.5,62.96,60,99,3.89,DE,2022-07-28 23:22:34
573,Diffa,13.3154,12.6113,80.33,65,30,6.29,NE,2022-07-28 23:22:34
574,Jamame,0.0722,42.7506,74.03,76,73,11.99,SO,2022-07-28 23:22:35
575,Cap Malheureux,-19.9842,57.6142,70.47,73,1,5.01,MU,2022-07-28 23:22:35
576,Alexandria,31.2156,29.9553,79.84,68,0,6.69,EG,2022-07-28 23:19:20
577,Ascension,30.2169,-90.9001,85.1,79,0,3.44,US,2022-07-28 23:22:36
578,Canavieiras,-15.675,-38.9472,69.35,83,1,5.3,BR,2022-07-28 23:22:36
579,Quelimane,-17.8786,36.8883,62.55,94,20,4.61,MZ,2022-07-28 23:22:36
580,Tammisaari,59.9736,23.4339,52.29,88,68,9.84,FI,2022-07-28 23:22:37
581,Quixada,-4.9714,-39.0153,75.96,67,68,7.07,BR,2022-07-28 23:22:37
582,Jackson,42.4165,-122.8345,111.74,17,0,6.91,US,2022-07-28 23:22:21
583,Jadu,31.953,12.0261,80.29,31,0,9.06,LY,2022-07-28 23:22:38
584,Mandera,3.9366,41.867,76.21,56,6,16.91,KE,2022-07-28 23:22:38
585,North Myrtle Beach,33.816,-78.68,92.35,84,0,23.02,US,2022-07-28 23:18:16
586,Durazno,-33.4131,-56.5006,49.59,69,0,14.16,UY,2022-07-28 23:22:39
587,Angul,20.85,85.1,81.23,79,100,2.28,IN,2022-07-28 23:22:39
588,Paamiut,61.994,-49.6678,42.26,91,94,14.27,GL,2022-07-28 23:22:39
589,Muros,42.7762,-9.0603,65.68,84,0,5.06,ES,2022-07-28 23:22:40
590,Nagorsk,59.3172,50.8078,56.75,91,14,3.24,RU,2022-07-28 23:22:40
591,Mizdah,31.4451,12.9801,78.96,42,5,6.78,LY,2022-07-28 23:22:41
592,Santa Fe,-31.6333,-60.7,59.02,42,0,8.01,AR,2022-07-28 23:19:00
593,Haveli,30.4502,73.6989,81.79,81,100,4.61,PK,2022-07-28 23:23:41
594,Antofagasta,-23.65,-70.4,56.48,88,53,7.58,CL,2022-07-28 23:20:13
595,Aqtobe,50.2797,57.2072,59.09,82,0,2.24,KZ,2022-07-28 23:23:41
596,Carballo,43.213,-8.691,64.9,87,4,1.74,ES,2022-07-28 23:23:42
597,Sumbe,-11.2061,13.8437,67.75,90,98,6.8,AO,2022-07-28 23:21:16
598,Belyy Yar,53.6039,91.3903,54.86,88,0,2.24,RU,2022-07-28 23:23:42
599,Tessalit,20.1986,1.0114,94.14,26,90,9.13,ML,2022-07-28 23:19:59
600,Itaituba,-4.2761,-55.9836,82.72,57,36,2.55,BR,2022-07-28 23:23:43
601,Yelets,52.6237,38.5017,62.11,95,98,9.37,RU,2022-07-28 23:23:43
602,Magog,45.2668,-72.1491,75.0,88,98,12.66,CA,2022-07-28 23:19:40
603,Acarau,-2.8856,-40.12,78.85,75,63,15.12,BR,2022-07-28 23:23:44
604,Olafsvik,64.8945,-23.7142,44.56,76,95,16.02,IS,2022-07-28 23:23:44
605,Dovolnoye,54.4958,79.6671,60.12,81,52,8.39,RU,2022-07-28 23:23:45
606,Ati,13.2154,18.3353,79.81,66,77,8.79,TD,2022-07-28 23:23:45
607,Arica,-18.475,-70.3042,61.03,72,100,8.05,CL,2022-07-28 23:19:33
608,Vieste,41.8825,16.175,79.81,68,0,4.94,IT,2022-07-28 23:23:46
609,Vannes,47.8333,-2.5,65.01,65,100,8.1,FR,2022-07-28 23:23:46
610,Radnevo,42.3,25.9333,68.47,70,4,3.42,BG,2022-07-28 23:23:46
611,Corlatel,44.3986,22.9331,69.84,65,20,4.61,RO,2022-07-28 23:23:47
612,Yining,29.0361,114.5636,78.71,90,88,0.87,CN,2022-07-28 23:23:47
613,Okitipupa,6.5047,4.7839,72.21,97,100,1.79,NG,2022-07-28 23:23:47
614,Zernograd,46.8452,40.3083,71.35,49,71,5.59,RU,2022-07-28 23:23:48
615,Locri,38.2414,16.2623,77.32,71,0,10.27,IT,2022-07-28 23:23:48
616,Maputo,-25.9653,32.5892,60.48,88,20,3.44,MZ,2022-07-28 23:23:48
617,Taltal,-25.4,-70.4833,59.67,80,84,3.13,CL,2022-07-28 23:23:49
618,Jales,-20.2689,-50.5458,72.64,26,6,4.88,BR,2022-07-28 23:23:49
619,Sorland,67.667,12.6934,53.46,81,60,16.89,NO,2022-07-28 23:23:50
620,Calama,-22.4667,-68.9333,64.89,9,0,10.36,CL,2022-07-28 23:23:50
621,Jardim,-21.4803,-56.1381,76.17,31,17,2.93,BR,2022-07-28 23:23:50
622,Warud,21.4667,78.2667,77.47,87,100,5.32,IN,2022-07-28 23:23:51
623,Rodrigues Alves,-7.738,-72.6509,80.8,69,55,2.1,BR,2022-07-28 23:23:51
624,Ahar,38.4774,47.0699,66.36,84,1,5.79,IR,2022-07-28 23:23:51
625,Spasskoye,44.6108,132.7969,73.85,82,100,7.94,RU,2022-07-28 23:23:52
626,Grenaa,56.4158,10.8783,52.59,75,0,3.29,DK,2022-07-28 23:23:52
627,Detva,48.5608,19.4195,61.81,75,52,4.23,SK,2022-07-28 23:23:52
628,Bukama,-9.2,25.85,69.91,37,79,0.31,CD,2022-07-28 23:23:52
629,Parainen,60.3067,22.301,58.14,86,98,13.09,FI,2022-07-28 23:23:53
630,Nokaneng,-19.6667,22.2667,57.6,40,0,6.8,BW,2022-07-28 23:23:53
631,Straumen,63.8709,11.2999,48.2,79,88,2.86,NO,2022-07-28 23:23:53
632,Kuruman,-27.4524,23.4325,59.52,35,56,20.13,ZA,2022-07-28 23:23:54
633,Khilchipur,24.0333,76.5667,77.07,87,96,6.87,IN,2022-07-28 23:23:54
634,Punta Alta,-38.8759,-62.0736,47.82,60,18,10.11,AR,2022-07-28 23:22:58
635,Rokytne,51.2796,27.214,57.0,77,37,3.96,UA,2022-07-28 23:23:55
636,Ilovlya,49.3033,43.9796,77.47,50,81,2.35,RU,2022-07-28 23:23:55
637,Kargasok,59.0556,80.8572,59.61,74,95,10.89,RU,2022-07-28 23:23:55
638,Villanueva,15.3167,-88.0,86.04,62,75,12.66,HN,2022-07-28 23:23:56
639,Karaman,37.0833,33.25,69.04,23,0,3.71,TR,2022-07-28 23:24:56
640,La Primavera,5.4906,-70.4092,71.78,96,100,3.6,CO,2022-07-28 23:24:56
641,Dossor,47.5272,52.9811,74.44,63,11,9.6,KZ,2022-07-28 23:24:57
642,Bauchi,10.5,10.0,70.52,91,100,3.51,NG,2022-07-28 23:24:57
643,Kermanshah,34.3142,47.065,72.5,6,0,0.0,IR,2022-07-28 23:24:57
644,Iranshahr,27.2025,60.6848,83.97,66,99,10.16,IR,2022-07-28 23:24:58
645,Demidov,55.2706,31.515,52.59,93,3,4.65,RU,2022-07-28 23:24:58
646,Zhezkazgan,47.8043,67.7144,66.18,68,0,11.18,KZ,2022-07-28 23:24:58
647,Revda,56.801,59.9303,51.15,96,99,4.59,RU,2022-07-28 23:24:59
648,Kopavogur,64.1123,-21.913,46.85,87,75,6.91,IS,2022-07-28 23:24:59
649,Cascais,38.6979,-9.4215,69.48,74,20,25.32,PT,2022-07-28 23:25:00
650,Emirdag,39.0197,31.15,70.57,37,0,2.71,TR,2022-07-28 23:25:00
651,Lock Haven,41.137,-77.4469,83.88,79,45,6.55,US,2022-07-28 23:20:41
652,Jiwani,25.05,61.7417,80.98,79,100,11.39,PK,2022-07-28 23:25:00
653,Zamora,-4.0692,-78.9567,79.84,83,58,0.98,EC,2022-07-28 23:25:01
654,Valdepenas,38.7621,-3.3848,78.85,28,0,4.32,ES,2022-07-28 23:25:01
655,San Andres,12.5847,-81.7006,82.42,74,40,11.5,CO,2022-07-28 23:25:02
656,Meridian,43.6121,-116.3915,103.82,20,0,8.05,US,2022-07-28 23:22:04
657,Pedro Ii,-4.4247,-41.4586,77.5,51,95,4.61,BR,2022-07-28 23:25:02
658,Tabas,33.5959,56.9244,91.35,21,15,3.65,IR,2022-07-28 23:25:02
659,Balkhash,46.844,74.9804,77.41,44,85,5.19,KZ,2022-07-28 23:25:03
660,Madison,34.7334,-86.5667,94.8,52,40,12.66,US,2022-07-28 23:25:03
661,Laurel,39.0993,-76.8483,89.08,84,0,6.91,US,2022-07-28 23:23:24
662,Pimenta Bueno,-11.6725,-61.1936,79.7,34,41,3.49,BR,2022-07-28 23:23:58
663,Kretinga,55.8758,21.2508,53.35,87,0,1.14,LT,2022-07-28 23:25:04
664,Saint Anthony,45.0205,-93.218,76.03,49,75,17.27,US,2022-07-28 23:25:04
665,Jasper,37.2001,-94.3502,89.65,53,75,4.61,US,2022-07-28 23:25:05
666,Bijawar,24.6333,79.5,77.59,83,96,4.88,IN,2022-07-28 23:25:05
